{
"type": "FeatureCollection",
"name": "1950_stations",
"crs": { "type": "name", "properties": { "name": "urn:ogc:def:crs:EPSG::4171" } },
"features": [
{ "type": "Feature", "properties": { "id": 19501, "Name": "Louis-Michel", "Line": "3", "Info": null, "Start_map": 1950, "End_map": 1950, "Open_date": null, "Close_date": null }, "geometry": { "type": "Point", "coordinates": [ 2.286437084265087, 48.887639752581904 ] } },
{ "type": "Feature", "properties": { "id": 19502, "Name": "Anatole France", "Line": "3", "Info": null, "Start_map": 1950, "End_map": 1950, "Open_date": null, "Close_date": null }, "geometry": { "type": "Point", "coordinates": [ 2.283406633492817, 48.890466230706039 ] } },
{ "type": "Feature", "properties": { "id": 19503, "Name": "Pont de Levallois-Bécon", "Line": "3", "Info": null, "Start_map": 1950, "End_map": 1950, "Open_date": null, "Close_date": null }, "geometry": { "type": "Point", "coordinates": [ 2.278190761490543, 48.896497993300848 ] } },
{ "type": "Feature", "properties": { "id": 19504, "Name": "Marc Sembat", "Line": "9", "Info": null, "Start_map": 1950, "End_map": 1950, "Open_date": null, "Close_date": null }, "geometry": { "type": "Point", "coordinates": [ 2.24721605792397, 48.835626727307854 ] } },
{ "type": "Feature", "properties": { "id": 19505, "Name": "Porte de Saint-Cloud", "Line": "9", "Info": null, "Start_map": 1950, "End_map": 1950, "Open_date": null, "Close_date": null }, "geometry": { "type": "Point", "coordinates": [ 2.256423966039714, 48.839181679175326 ] } },
{ "type": "Feature", "properties": { "id": 19506, "Name": "Exelmans", "Line": "9", "Info": null, "Start_map": 1950, "End_map": 1950, "Open_date": null, "Close_date": null }, "geometry": { "type": "Point", "coordinates": [ 2.258813359917851, 48.842532658394667 ] } },
{ "type": "Feature", "properties": { "id": 19507, "Name": "Michel-Ange - Molitor", "Line": "9", "Info": null, "Start_map": 1950, "End_map": 1950, "Open_date": null, "Close_date": null }, "geometry": { "type": "Point", "coordinates": [ 2.26079480849972, 48.845650526016136 ] } },
{ "type": "Feature", "properties": { "id": 19508, "Name": "Michel-Ange - Auteuil", "Line": "9", "Info": null, "Start_map": 1950, "End_map": 1950, "Open_date": null, "Close_date": null }, "geometry": { "type": "Point", "coordinates": [ 2.262514006533989, 48.848360448341339 ] } },
{ "type": "Feature", "properties": { "id": 19509, "Name": "Jasmin", "Line": "9", "Info": null, "Start_map": 1950, "End_map": 1950, "Open_date": null, "Close_date": null }, "geometry": { "type": "Point", "coordinates": [ 2.267117960591861, 48.852265067605607 ] } },
{ "type": "Feature", "properties": { "id": 195010, "Name": "Ranelagh", "Line": "9", "Info": null, "Start_map": 1950, "End_map": 1950, "Open_date": null, "Close_date": null }, "geometry": { "type": "Point", "coordinates": [ 2.268924575475331, 48.855324657327614 ] } },
{ "type": "Feature", "properties": { "id": 195011, "Name": "Muette", "Line": "9", "Info": null, "Start_map": 1950, "End_map": 1950, "Open_date": null, "Close_date": null }, "geometry": { "type": "Point", "coordinates": [ 2.27411130852787, 48.858092857552286 ] } },
{ "type": "Feature", "properties": { "id": 195012, "Name": "Pompe", "Line": "9", "Info": null, "Start_map": 1950, "End_map": 1950, "Open_date": null, "Close_date": null }, "geometry": { "type": "Point", "coordinates": [ 2.277753677244541, 48.86409548119736 ] } },
{ "type": "Feature", "properties": { "id": 195013, "Name": "Iena", "Line": "9", "Info": null, "Start_map": 1950, "End_map": 1950, "Open_date": null, "Close_date": null }, "geometry": { "type": "Point", "coordinates": [ 2.293226459552961, 48.864328592795232 ] } },
{ "type": "Feature", "properties": { "id": 195014, "Name": "Alma-Marceau", "Line": "9", "Info": null, "Start_map": 1950, "End_map": 1950, "Open_date": null, "Close_date": null }, "geometry": { "type": "Point", "coordinates": [ 2.299899279041903, 48.864911371789901 ] } },
{ "type": "Feature", "properties": { "id": 195015, "Name": "Franklin D. Roosevelt", "Line": "9", "Info": null, "Start_map": 1950, "End_map": 1950, "Open_date": null, "Close_date": null }, "geometry": { "type": "Point", "coordinates": [ 2.308495269213247, 48.868437184707638 ] } },
{ "type": "Feature", "properties": { "id": 195016, "Name": "Saint Philippe du Roule", "Line": "9", "Info": null, "Start_map": 1950, "End_map": 1950, "Open_date": null, "Close_date": null }, "geometry": { "type": "Point", "coordinates": [ 2.309282020856048, 48.872545776620044 ] } },
{ "type": "Feature", "properties": { "id": 195017, "Name": "Miromesnil", "Line": "9", "Info": null, "Start_map": 1950, "End_map": 1950, "Open_date": null, "Close_date": null }, "geometry": { "type": "Point", "coordinates": [ 2.315546895048723, 48.873944446207233 ] } },
{ "type": "Feature", "properties": { "id": 195018, "Name": "Saint Augustin", "Line": "9", "Info": null, "Start_map": 1950, "End_map": 1950, "Open_date": null, "Close_date": null }, "geometry": { "type": "Point", "coordinates": [ 2.32157865764353, 48.87441066940297 ] } },
{ "type": "Feature", "properties": { "id": 195019, "Name": "Havre-Caumartin", "Line": "9", "Info": null, "Start_map": 1950, "End_map": 1950, "Open_date": null, "Close_date": null }, "geometry": { "type": "Point", "coordinates": [ 2.328630283479006, 48.873857029358042 ] } },
{ "type": "Feature", "properties": { "id": 195020, "Name": "Chausee d'Antin", "Line": "9", "Info": null, "Start_map": 1950, "End_map": 1950, "Open_date": null, "Close_date": null }, "geometry": { "type": "Point", "coordinates": [ 2.334428934475946, 48.872808027167636 ] } },
{ "type": "Feature", "properties": { "id": 195021, "Name": "Richelieu Drouot", "Line": "9", "Info": null, "Start_map": 1950, "End_map": 1950, "Open_date": null, "Close_date": null }, "geometry": { "type": "Point", "coordinates": [ 2.33990705702582, 48.871962997625367 ] } },
{ "type": "Feature", "properties": { "id": 195022, "Name": "Montmartre", "Line": "9", "Info": null, "Start_map": 1950, "End_map": 1950, "Open_date": null, "Close_date": null }, "geometry": { "type": "Point", "coordinates": [ 2.343607703641957, 48.87140935758044 ] } },
{ "type": "Feature", "properties": { "id": 195023, "Name": "Bonne Nouvelle", "Line": "9", "Info": null, "Start_map": 1950, "End_map": 1950, "Open_date": null, "Close_date": null }, "geometry": { "type": "Point", "coordinates": [ 2.34847390824743, 48.870564328038171 ] } },
{ "type": "Feature", "properties": { "id": 195024, "Name": "Strasbourg - Saint-Denis", "Line": "9", "Info": null, "Start_map": 1950, "End_map": 1950, "Open_date": null, "Close_date": null }, "geometry": { "type": "Point", "coordinates": [ 2.354418253993037, 48.869369631099104 ] } },
{ "type": "Feature", "properties": { "id": 195025, "Name": "Republique", "Line": "9", "Info": null, "Start_map": 1950, "End_map": 1950, "Open_date": null, "Close_date": null }, "geometry": { "type": "Point", "coordinates": [ 2.362810271516247, 48.867766988863771 ] } },
{ "type": "Feature", "properties": { "id": 195026, "Name": "Oberkampf", "Line": "9", "Info": null, "Start_map": 1950, "End_map": 1950, "Open_date": null, "Close_date": null }, "geometry": { "type": "Point", "coordinates": [ 2.37035725949719, 48.8639497864487 ] } },
{ "type": "Feature", "properties": { "id": 195027, "Name": "Saint Ambroise", "Line": "9", "Info": null, "Start_map": 1950, "End_map": 1950, "Open_date": null, "Close_date": null }, "geometry": { "type": "Point", "coordinates": [ 2.375310880951863, 48.860540529329903 ] } },
{ "type": "Feature", "properties": { "id": 195028, "Name": "Voltaire", "Line": "9", "Info": null, "Start_map": 1950, "End_map": 1950, "Open_date": null, "Close_date": null }, "geometry": { "type": "Point", "coordinates": [ 2.380089668708135, 48.857714051205768 ] } },
{ "type": "Feature", "properties": { "id": 195029, "Name": "Charonne", "Line": "9", "Info": null, "Start_map": 1950, "End_map": 1950, "Open_date": null, "Close_date": null }, "geometry": { "type": "Point", "coordinates": [ 2.385684347056942, 48.854596183584299 ] } },
{ "type": "Feature", "properties": { "id": 195030, "Name": "Boulets Montreuil", "Line": "9", "Info": null, "Start_map": 1950, "End_map": 1950, "Open_date": null, "Close_date": null }, "geometry": { "type": "Point", "coordinates": [ 2.388802214678413, 48.852731290801358 ] } },
{ "type": "Feature", "properties": { "id": 195031, "Name": "Nation", "Line": "9", "Info": null, "Start_map": 1950, "End_map": 1950, "Open_date": null, "Close_date": null }, "geometry": { "type": "Point", "coordinates": [ 2.396232646860422, 48.849147199984159 ] } },
{ "type": "Feature", "properties": { "id": 195032, "Name": "Buzenval", "Line": "9", "Info": null, "Start_map": 1950, "End_map": 1950, "Open_date": null, "Close_date": null }, "geometry": { "type": "Point", "coordinates": [ 2.401011434616695, 48.851594871761769 ] } },
{ "type": "Feature", "properties": { "id": 195033, "Name": "Maraichers", "Line": "9", "Info": null, "Start_map": 1950, "End_map": 1950, "Open_date": null, "Close_date": null }, "geometry": { "type": "Point", "coordinates": [ 2.406489557166569, 48.852673012901903 ] } },
{ "type": "Feature", "properties": { "id": 195034, "Name": "Porte de Montreuil", "Line": "9", "Info": null, "Start_map": 1950, "End_map": 1950, "Open_date": null, "Close_date": null }, "geometry": { "type": "Point", "coordinates": [ 2.412229930264042, 48.853518042444172 ] } },
{ "type": "Feature", "properties": { "id": 195035, "Name": "Balard", "Line": "8", "Info": null, "Start_map": 1950, "End_map": 1950, "Open_date": null, "Close_date": null }, "geometry": { "type": "Point", "coordinates": [ 2.275947062361072, 48.836122089453347 ] } },
{ "type": "Feature", "properties": { "id": 195036, "Name": "Lourmel", "Line": "8", "Info": null, "Start_map": 1950, "End_map": 1950, "Open_date": null, "Close_date": null }, "geometry": { "type": "Point", "coordinates": [ 2.281716574408279, 48.83830751068335 ] } },
{ "type": "Feature", "properties": { "id": 195037, "Name": "Boucicaut", "Line": "8", "Info": null, "Start_map": 1950, "End_map": 1950, "Open_date": null, "Close_date": null }, "geometry": { "type": "Point", "coordinates": [ 2.287311252757086, 48.840376376114413 ] } },
{ "type": "Feature", "properties": { "id": 195038, "Name": "Saint Jean-Baptiste", "Line": "8", "Info": null, "Start_map": 1950, "End_map": 1950, "Open_date": null, "Close_date": null }, "geometry": { "type": "Point", "coordinates": [ 2.292060901563625, 48.842561797344416 ] } },
{ "type": "Feature", "properties": { "id": 195039, "Name": "Commerce", "Line": "8", "Info": null, "Start_map": 1950, "End_map": 1950, "Open_date": null, "Close_date": null }, "geometry": { "type": "Point", "coordinates": [ 2.294392017542295, 48.844863774373358 ] } },
{ "type": "Feature", "properties": { "id": 195040, "Name": "La Motte-Pichet Grenelle", "Line": "8", "Info": null, "Start_map": 1950, "End_map": 1950, "Open_date": null, "Close_date": null }, "geometry": { "type": "Point", "coordinates": [ 2.2987628600023, 48.849234616833357 ] } },
{ "type": "Feature", "properties": { "id": 195041, "Name": "Drouot", "Line": "8", "Info": null, "Start_map": 1950, "End_map": 1950, "Open_date": null, "Close_date": null }, "geometry": { "type": "Point", "coordinates": [ 2.33990705702582, 48.871962997625367 ] } },
{ "type": "Feature", "properties": { "id": 195042, "Name": "Drouot", "Line": "8", "Info": null, "Start_map": 1950, "End_map": 1950, "Open_date": null, "Close_date": null }, "geometry": { "type": "Point", "coordinates": [ 2.339898099710591, 48.871754701066415 ] } },
{ "type": "Feature", "properties": { "id": 195043, "Name": "Bonne Nouvelle", "Line": "8", "Info": null, "Start_map": 1950, "End_map": 1950, "Open_date": null, "Close_date": null }, "geometry": { "type": "Point", "coordinates": [ 2.348299074549029, 48.870098104842448 ] } },
{ "type": "Feature", "properties": { "id": 195044, "Name": "Strasbourg - Saint-Denis", "Line": "8", "Info": null, "Start_map": 1950, "End_map": 1950, "Open_date": null, "Close_date": null }, "geometry": { "type": "Point", "coordinates": [ 2.354126864495703, 48.869078241601777 ] } },
{ "type": "Feature", "properties": { "id": 195045, "Name": "Saint Martin", "Line": "8", "Info": null, "Start_map": 1950, "End_map": 1950, "Open_date": null, "Close_date": null }, "geometry": { "type": "Point", "coordinates": [ 2.357740094262641, 48.86840804575791 ] } },
{ "type": "Feature", "properties": { "id": 195046, "Name": "Saint Martin", "Line": "9", "Info": null, "Start_map": 1950, "End_map": 1950, "Open_date": null, "Close_date": null }, "geometry": { "type": "Point", "coordinates": [ 2.358206317458375, 48.869019963702314 ] } },
{ "type": "Feature", "properties": { "id": 195047, "Name": "Republique", "Line": "8", "Info": null, "Start_map": 1950, "End_map": 1950, "Open_date": null, "Close_date": null }, "geometry": { "type": "Point", "coordinates": [ 2.36196524197398, 48.867592155165376 ] } },
{ "type": "Feature", "properties": { "id": 195048, "Name": "Filles du Calvaire", "Line": "8", "Info": null, "Start_map": 1950, "End_map": 1950, "Open_date": null, "Close_date": null }, "geometry": { "type": "Point", "coordinates": [ 2.366073833886385, 48.863192173755635 ] } },
{ "type": "Feature", "properties": { "id": 195049, "Name": "Debastien Froissard", "Line": "8", "Info": null, "Start_map": 1950, "End_map": 1950, "Open_date": null, "Close_date": null }, "geometry": { "type": "Point", "coordinates": [ 2.367443364523853, 48.860336556681766 ] } },
{ "type": "Feature", "properties": { "id": 195050, "Name": "Chemin Vert", "Line": "8", "Info": null, "Start_map": 1950, "End_map": 1950, "Open_date": null, "Close_date": null }, "geometry": { "type": "Point", "coordinates": [ 2.36767647612172, 48.856781604814294 ] } },
{ "type": "Feature", "properties": { "id": 195051, "Name": "Bastille", "Line": "8", "Info": null, "Start_map": 1950, "End_map": 1950, "Open_date": null, "Close_date": null }, "geometry": { "type": "Point", "coordinates": [ 2.369016867809455, 48.853663737192825 ] } },
{ "type": "Feature", "properties": { "id": 195052, "Name": "Ledru-Rollin", "Line": "8", "Info": null, "Start_map": 1950, "End_map": 1950, "Open_date": null, "Close_date": null }, "geometry": { "type": "Point", "coordinates": [ 2.37519432515293, 48.851157787515746 ] } },
{ "type": "Feature", "properties": { "id": 195053, "Name": "Faidherbe-Chaligny", "Line": "8", "Info": null, "Start_map": 1950, "End_map": 1950, "Open_date": null, "Close_date": null }, "geometry": { "type": "Point", "coordinates": [ 2.384314816419475, 48.850167063224809 ] } },
{ "type": "Feature", "properties": { "id": 195054, "Name": "Reuilly-Diderot", "Line": "8", "Info": null, "Start_map": 1950, "End_map": 1950, "Open_date": null, "Close_date": null }, "geometry": { "type": "Point", "coordinates": [ 2.387039308219545, 48.847617405123138 ] } },
{ "type": "Feature", "properties": { "id": 195055, "Name": "Montgallet", "Line": "8", "Info": null, "Start_map": 1950, "End_map": 1950, "Open_date": null, "Close_date": null }, "geometry": { "type": "Point", "coordinates": [ 2.390244592690215, 48.844645232250336 ] } },
{ "type": "Feature", "properties": { "id": 195056, "Name": "Daumesnil", "Line": "8", "Info": null, "Start_map": 1950, "End_map": 1950, "Open_date": null, "Close_date": null }, "geometry": { "type": "Point", "coordinates": [ 2.395810132089289, 48.839808166594594 ] } },
{ "type": "Feature", "properties": { "id": 195057, "Name": "Michel-Bizot", "Line": "8", "Info": null, "Start_map": 1950, "End_map": 1950, "Open_date": null, "Close_date": null }, "geometry": { "type": "Point", "coordinates": [ 2.404289566461699, 48.836632021073662 ] } },
{ "type": "Feature", "properties": { "id": 195058, "Name": "Porte Dorée", "Line": "8", "Info": null, "Start_map": 1950, "End_map": 1950, "Open_date": null, "Close_date": null }, "geometry": { "type": "Point", "coordinates": [ 2.406620682440369, 48.834971100938866 ] } },
{ "type": "Feature", "properties": { "id": 195059, "Name": "Porte de Charenton", "Line": "8", "Info": null, "Start_map": 1950, "End_map": 1950, "Open_date": null, "Close_date": null }, "geometry": { "type": "Point", "coordinates": [ 2.399773029253027, 48.832028067015791 ] } },
{ "type": "Feature", "properties": { "id": 195060, "Name": "Liberte", "Line": "8", "Info": null, "Start_map": 1950, "End_map": 1950, "Open_date": null, "Close_date": null }, "geometry": { "type": "Point", "coordinates": [ 2.407931935178371, 48.826112860219915 ] } },
{ "type": "Feature", "properties": { "id": 195061, "Name": "Porte de la Chapelle", "Line": "12", "Info": null, "Start_map": 1950, "End_map": 1950, "Open_date": null, "Close_date": null }, "geometry": { "type": "Point", "coordinates": [ 2.359357305972843, 48.897736398664534 ] } },
{ "type": "Feature", "properties": { "id": 195062, "Name": "Marx-Dormoy", "Line": "12", "Info": null, "Start_map": 1950, "End_map": 1950, "Open_date": null, "Close_date": null }, "geometry": { "type": "Point", "coordinates": [ 2.360668558710845, 48.890422522281462 ] } },
{ "type": "Feature", "properties": { "id": 195063, "Name": "Marcadet-Poissonniers", "Line": "12", "Info": null, "Start_map": 1950, "End_map": 1950, "Open_date": null, "Close_date": null }, "geometry": { "type": "Point", "coordinates": [ 2.351314955846433, 48.891121857075063 ] } },
{ "type": "Feature", "properties": { "id": 195064, "Name": "J.Joffrin", "Line": "12", "Info": null, "Start_map": 1950, "End_map": 1950, "Open_date": null, "Close_date": null }, "geometry": { "type": "Point", "coordinates": [ 2.343971940513624, 48.892491387712532 ] } },
{ "type": "Feature", "properties": { "id": 195065, "Name": "Lamarck-Caulaincourt", "Line": "12", "Info": null, "Start_map": 1950, "End_map": 1950, "Open_date": null, "Close_date": null }, "geometry": { "type": "Point", "coordinates": [ 2.338522956913483, 48.889460936940253 ] } },
{ "type": "Feature", "properties": { "id": 195066, "Name": "Abbesses", "Line": "12", "Info": null, "Start_map": 1950, "End_map": 1950, "Open_date": null, "Close_date": null }, "geometry": { "type": "Point", "coordinates": [ 2.338202428466416, 48.884711288133715 ] } },
{ "type": "Feature", "properties": { "id": 195067, "Name": "Pigalle", "Line": "12", "Info": null, "Start_map": 1950, "End_map": 1950, "Open_date": null, "Close_date": null }, "geometry": { "type": "Point", "coordinates": [ 2.337677927371215, 48.882292755305841 ] } },
{ "type": "Feature", "properties": { "id": 195068, "Name": "Saint Georges", "Line": "12", "Info": null, "Start_map": 1950, "End_map": 1950, "Open_date": null, "Close_date": null }, "geometry": { "type": "Point", "coordinates": [ 2.337328259974415, 48.878650386589172 ] } },
{ "type": "Feature", "properties": { "id": 195069, "Name": "Notre Dame de Lorette", "Line": "12", "Info": null, "Start_map": 1950, "End_map": 1950, "Open_date": null, "Close_date": null }, "geometry": { "type": "Point", "coordinates": [ 2.338522956913482, 48.875911325314242 ] } },
{ "type": "Feature", "properties": { "id": 195070, "Name": "Trinite", "Line": "12", "Info": null, "Start_map": 1950, "End_map": 1950, "Open_date": null, "Close_date": null }, "geometry": { "type": "Point", "coordinates": [ 2.332432916419208, 48.876202714811576 ] } },
{ "type": "Feature", "properties": { "id": 195071, "Name": "Gare Saint Lazare", "Line": "12", "Info": null, "Start_map": 1950, "End_map": 1950, "Open_date": null, "Close_date": null }, "geometry": { "type": "Point", "coordinates": [ 2.327071349668268, 48.875561657917437 ] } },
{ "type": "Feature", "properties": { "id": 195072, "Name": "Concorde", "Line": "12", "Info": null, "Start_map": 1950, "End_map": 1950, "Open_date": null, "Close_date": null }, "geometry": { "type": "Point", "coordinates": [ 2.323924343097064, 48.866441166650894 ] } },
{ "type": "Feature", "properties": { "id": 195073, "Name": "Chemin des Deputes", "Line": "12", "Info": null, "Start_map": 1950, "End_map": 1950, "Open_date": null, "Close_date": null }, "geometry": { "type": "Point", "coordinates": [ 2.321156142872394, 48.861021322000489 ] } },
{ "type": "Feature", "properties": { "id": 195074, "Name": "Solferino", "Line": "12", "Info": null, "Start_map": 1950, "End_map": 1950, "Open_date": null, "Close_date": null }, "geometry": { "type": "Point", "coordinates": [ 2.32310845250453, 48.859127290267821 ] } },
{ "type": "Feature", "properties": { "id": 195075, "Name": "Bac", "Line": "12", "Info": null, "Start_map": 1950, "End_map": 1950, "Open_date": null, "Close_date": null }, "geometry": { "type": "Point", "coordinates": [ 2.326721682271468, 48.855106115204613 ] } },
{ "type": "Feature", "properties": { "id": 195076, "Name": "Sevres-Babylone", "Line": "12", "Info": null, "Start_map": 1950, "End_map": 1950, "Open_date": null, "Close_date": null }, "geometry": { "type": "Point", "coordinates": [ 2.327741545512136, 48.851696858085809 ] } },
{ "type": "Feature", "properties": { "id": 195077, "Name": "Rennes", "Line": "12", "Info": null, "Start_map": 1950, "End_map": 1950, "Open_date": null, "Close_date": null }, "geometry": { "type": "Point", "coordinates": [ 2.328266046607336, 48.849802826353141 ] } },
{ "type": "Feature", "properties": { "id": 195078, "Name": "Notre Dame des Champs", "Line": "12", "Info": null, "Start_map": 1950, "End_map": 1950, "Open_date": null, "Close_date": null }, "geometry": { "type": "Point", "coordinates": [ 2.329548160395605, 48.844499537501669 ] } },
{ "type": "Feature", "properties": { "id": 195079, "Name": "Montparnasse", "Line": "12", "Info": null, "Start_map": 1950, "End_map": 1950, "Open_date": null, "Close_date": null }, "geometry": { "type": "Point", "coordinates": [ 2.322787924057463, 48.844557815401132 ] } },
{ "type": "Feature", "properties": { "id": 195080, "Name": "Falguiere", "Line": "12", "Info": null, "Start_map": 1950, "End_map": 1950, "Open_date": null, "Close_date": null }, "geometry": { "type": "Point", "coordinates": [ 2.318038275250923, 48.844295564853532 ] } },
{ "type": "Feature", "properties": { "id": 195081, "Name": "Pasteur", "Line": "12", "Info": null, "Start_map": 1950, "End_map": 1950, "Open_date": null, "Close_date": null }, "geometry": { "type": "Point", "coordinates": [ 2.313026375896784, 48.842751200517661 ] } },
{ "type": "Feature", "properties": { "id": 195082, "Name": "Volontaires", "Line": "12", "Info": null, "Start_map": 1950, "End_map": 1950, "Open_date": null, "Close_date": null }, "geometry": { "type": "Point", "coordinates": [ 2.307693948095577, 48.841148558282327 ] } },
{ "type": "Feature", "properties": { "id": 195083, "Name": "Vaugirard", "Line": "12", "Info": null, "Start_map": 1950, "End_map": 1950, "Open_date": null, "Close_date": null }, "geometry": { "type": "Point", "coordinates": [ 2.302157547646237, 48.839487638147524 ] } },
{ "type": "Feature", "properties": { "id": 195084, "Name": "Convention", "Line": "12", "Info": null, "Start_map": 1950, "End_map": 1950, "Open_date": null, "Close_date": null }, "geometry": { "type": "Point", "coordinates": [ 2.296621147196896, 48.837185661118589 ] } },
{ "type": "Feature", "properties": { "id": 195085, "Name": "Porte de Versaille", "Line": "12", "Info": null, "Start_map": 1950, "End_map": 1950, "Open_date": null, "Close_date": null }, "geometry": { "type": "Point", "coordinates": [ 2.288083434925019, 48.832465151261786 ] } },
{ "type": "Feature", "properties": { "id": 195086, "Name": "Segur", "Line": "10", "Info": null, "Start_map": 1950, "End_map": 1950, "Open_date": null, "Close_date": null }, "geometry": { "type": "Point", "coordinates": [ 2.305974750061308, 48.848578990464325 ] } },
{ "type": "Feature", "properties": { "id": 195087, "Name": "Duroc", "Line": "10", "Info": null, "Start_map": 1950, "End_map": 1950, "Open_date": null, "Close_date": null }, "geometry": { "type": "Point", "coordinates": [ 2.316173382467988, 48.846684958731657 ] } },
{ "type": "Feature", "properties": { "id": 195088, "Name": "Vaneau", "Line": "10", "Info": null, "Start_map": 1950, "End_map": 1950, "Open_date": null, "Close_date": null }, "geometry": { "type": "Point", "coordinates": [ 2.320631641777193, 48.84840415676593 ] } },
{ "type": "Feature", "properties": { "id": 195089, "Name": "Sevres-Babylone", "Line": "10", "Info": null, "Start_map": 1950, "End_map": 1950, "Open_date": null, "Close_date": null }, "geometry": { "type": "Point", "coordinates": [ 2.327013071768801, 48.851084940141398 ] } },
{ "type": "Feature", "properties": { "id": 195090, "Name": "Croix-Rouge", "Line": "10", "Info": null, "Start_map": 1950, "End_map": 1950, "Open_date": null, "Close_date": null }, "geometry": { "type": "Point", "coordinates": [ 2.330801135234139, 48.851929969683667 ] } },
{ "type": "Feature", "properties": { "id": 195091, "Name": "Mabillon", "Line": "10", "Info": null, "Start_map": 1950, "End_map": 1950, "Open_date": null, "Close_date": null }, "geometry": { "type": "Point", "coordinates": [ 2.335375950342278, 48.852221359181009 ] } },
{ "type": "Feature", "properties": { "id": 195092, "Name": "Odeon", "Line": "10", "Info": null, "Start_map": 1950, "End_map": 1950, "Open_date": null, "Close_date": null }, "geometry": { "type": "Point", "coordinates": [ 2.33945540330495, 48.852337914979948 ] } },
{ "type": "Feature", "properties": { "id": 195093, "Name": "Cluny", "Line": "10", "Info": null, "Start_map": 1950, "End_map": 1950, "Open_date": null, "Close_date": null }, "geometry": { "type": "Point", "coordinates": [ 2.344438163709357, 48.85096838434248 ] } },
{ "type": "Feature", "properties": { "id": 195094, "Name": "Saint Germain", "Line": "10", "Info": null, "Start_map": 1950, "End_map": 1950, "Open_date": null, "Close_date": null }, "geometry": { "type": "Point", "coordinates": [ 2.348925561968296, 48.849890243202339 ] } },
{ "type": "Feature", "properties": { "id": 195095, "Name": "Card Lemoine", "Line": "10", "Info": null, "Start_map": 1950, "End_map": 1950, "Open_date": null, "Close_date": null }, "geometry": { "type": "Point", "coordinates": [ 2.352276541187634, 48.846277013435397 ] } },
{ "type": "Feature", "properties": { "id": 195096, "Name": "Lemoine Jussieu", "Line": "10", "Info": null, "Start_map": 1950, "End_map": 1950, "Open_date": null, "Close_date": null }, "geometry": { "type": "Point", "coordinates": [ 2.356618244697906, 48.846014762887798 ] } },
{ "type": "Feature", "properties": { "id": 195097, "Name": "Gare d'Orleans - Austerliz", "Line": "10", "Info": null, "Start_map": 1950, "End_map": 1950, "Open_date": null, "Close_date": null }, "geometry": { "type": "Point", "coordinates": [ 2.363961260030714, 48.8431300068642 ] } },
{ "type": "Feature", "properties": { "id": 195098, "Name": "Pierre Curie", "Line": "7", "Info": null, "Start_map": 1950, "End_map": 1950, "Open_date": null, "Close_date": null }, "geometry": { "type": "Point", "coordinates": [ 2.374859227230995, 48.817604286897762 ] } },
{ "type": "Feature", "properties": { "id": 195099, "Name": "Porte d'Ivry", "Line": "7", "Info": null, "Start_map": 1950, "End_map": 1950, "Open_date": null, "Close_date": null }, "geometry": { "type": "Point", "coordinates": [ 2.368740047786988, 48.820896988217633 ] } },
{ "type": "Feature", "properties": { "id": 1950100, "Name": "Porte de Choisy", "Line": "7", "Info": null, "Start_map": 1950, "End_map": 1950, "Open_date": null, "Close_date": null }, "geometry": { "type": "Point", "coordinates": [ 2.364398344276715, 48.81923606808283 ] } },
{ "type": "Feature", "properties": { "id": 1950101, "Name": "Porte d'Italie", "Line": "7", "Info": null, "Start_map": 1950, "End_map": 1950, "Open_date": null, "Close_date": null }, "geometry": { "type": "Point", "coordinates": [ 2.359969223917243, 48.818332760641098 ] } },
{ "type": "Feature", "properties": { "id": 1950102, "Name": "La Maison Blanche", "Line": "7", "Info": null, "Start_map": 1950, "End_map": 1950, "Open_date": null, "Close_date": null }, "geometry": { "type": "Point", "coordinates": [ 2.357492413189906, 48.822004268307502 ] } },
{ "type": "Feature", "properties": { "id": 1950103, "Name": "Tolbiac", "Line": "7", "Info": null, "Start_map": 1950, "End_map": 1950, "Open_date": null, "Close_date": null }, "geometry": { "type": "Point", "coordinates": [ 2.356880495245506, 48.825675775973906 ] } },
{ "type": "Feature", "properties": { "id": 1950104, "Name": "Place d'Italie", "Line": "7", "Info": null, "Start_map": 1950, "End_map": 1950, "Open_date": null, "Close_date": null }, "geometry": { "type": "Point", "coordinates": [ 2.35484076876417, 48.832232039663914 ] } },
{ "type": "Feature", "properties": { "id": 1950105, "Name": "Gobelins", "Line": "7", "Info": null, "Start_map": 1950, "End_map": 1950, "Open_date": null, "Close_date": null }, "geometry": { "type": "Point", "coordinates": [ 2.3519851516903, 48.83587440838059 ] } },
{ "type": "Feature", "properties": { "id": 1950106, "Name": "Censier Daubenton", "Line": "7", "Info": null, "Start_map": 1950, "End_map": 1950, "Open_date": null, "Close_date": null }, "geometry": { "type": "Point", "coordinates": [ 2.351868595891367, 48.840857168784993 ] } },
{ "type": "Feature", "properties": { "id": 1950107, "Name": "Monge", "Line": "7", "Info": null, "Start_map": 1950, "End_map": 1950, "Open_date": null, "Close_date": null }, "geometry": { "type": "Point", "coordinates": [ 2.352189124338433, 48.843771063758332 ] } },
{ "type": "Feature", "properties": { "id": 1950108, "Name": "Lemoine Jussieu", "Line": "7", "Info": null, "Start_map": 1950, "End_map": 1950, "Open_date": null, "Close_date": null }, "geometry": { "type": "Point", "coordinates": [ 2.356763939446573, 48.845490261792598 ] } },
{ "type": "Feature", "properties": { "id": 1950109, "Name": "Sully-Morland", "Line": "7", "Info": null, "Start_map": 1950, "End_map": 1950, "Open_date": null, "Close_date": null }, "geometry": { "type": "Point", "coordinates": [ 2.361193059806045, 48.85137632963874 ] } },
{ "type": "Feature", "properties": { "id": 1950110, "Name": "Place Marie", "Line": "7", "Info": null, "Start_map": 1950, "End_map": 1950, "Open_date": null, "Close_date": null }, "geometry": { "type": "Point", "coordinates": [ 2.357142745793106, 48.853153805572475 ] } },
{ "type": "Feature", "properties": { "id": 1950111, "Name": "Chatelet", "Line": "7", "Info": null, "Start_map": 1950, "End_map": 1950, "Open_date": null, "Close_date": null }, "geometry": { "type": "Point", "coordinates": [ 2.346652723889093, 48.857087563786479 ] } },
{ "type": "Feature", "properties": { "id": 1950112, "Name": "Pont Neuf", "Line": "7", "Info": null, "Start_map": 1950, "End_map": 1950, "Open_date": null, "Close_date": null }, "geometry": { "type": "Point", "coordinates": [ 2.341582546635486, 48.858340538625015 ] } },
{ "type": "Feature", "properties": { "id": 1950113, "Name": "Palais Royal", "Line": "7", "Info": null, "Start_map": 1950, "End_map": 1950, "Open_date": null, "Close_date": null }, "geometry": { "type": "Point", "coordinates": [ 2.335405089292012, 48.863614688526759 ] } },
{ "type": "Feature", "properties": { "id": 1950114, "Name": "Pyramides", "Line": "7", "Info": null, "Start_map": 1950, "End_map": 1950, "Open_date": null, "Close_date": null }, "geometry": { "type": "Point", "coordinates": [ 2.333773308106943, 48.866412027701159 ] } },
{ "type": "Feature", "properties": { "id": 1950116, "Name": "Porte de Saint Ouen", "Line": "13", "Info": null, "Start_map": 1950, "End_map": 1950, "Open_date": null, "Close_date": null }, "geometry": { "type": "Point", "coordinates": [ 2.328673991903603, 48.89703706387094 ] } },
{ "type": "Feature", "properties": { "id": 1950117, "Name": "Guy Mocquet", "Line": "13", "Info": null, "Start_map": 1950, "End_map": 1950, "Open_date": null, "Close_date": null }, "geometry": { "type": "Point", "coordinates": [ 2.327187905467202, 48.892083442416265 ] } },
{ "type": "Feature", "properties": { "id": 1950118, "Name": "Porte de Clichy", "Line": "13", "Info": null, "Start_map": 1950, "End_map": 1950, "Open_date": null, "Close_date": null }, "geometry": { "type": "Point", "coordinates": [ 2.314162794936385, 48.894006613098668 ] } },
{ "type": "Feature", "properties": { "id": 1950119, "Name": "Brochant", "Line": "13", "Info": null, "Start_map": 1950, "End_map": 1950, "Open_date": null, "Close_date": null }, "geometry": { "type": "Point", "coordinates": [ 2.320078001732259, 48.890509939130659 ] } },
{ "type": "Feature", "properties": { "id": 1950120, "Name": "La Fourche", "Line": "13", "Info": null, "Start_map": 1950, "End_map": 1950, "Open_date": null, "Close_date": null }, "geometry": { "type": "Point", "coordinates": [ 2.325789235879999, 48.887362932559455 ] } },
{ "type": "Feature", "properties": { "id": 1950121, "Name": "Clichy", "Line": "13", "Info": null, "Start_map": 1950, "End_map": 1950, "Open_date": null, "Close_date": null }, "geometry": { "type": "Point", "coordinates": [ 2.327712406562402, 48.883487452244921 ] } },
{ "type": "Feature", "properties": { "id": 1950122, "Name": "Liege", "Line": "13", "Info": null, "Start_map": 1950, "End_map": 1950, "Open_date": null, "Close_date": null }, "geometry": { "type": "Point", "coordinates": [ 2.327362739165602, 48.879291443483311 ] } },
{ "type": "Feature", "properties": { "id": 1950123, "Name": "Gare Saint Lazare", "Line": "13", "Info": null, "Start_map": 1950, "End_map": 1950, "Open_date": null, "Close_date": null }, "geometry": { "type": "Point", "coordinates": [ 2.32578923588, 48.875532518967709 ] } },
{ "type": "Feature", "properties": { "id": 1950124, "Name": "Invalides", "Line": "14", "Info": null, "Start_map": 1950, "End_map": 1950, "Open_date": null, "Close_date": null }, "geometry": { "type": "Point", "coordinates": [ 2.314832990780252, 48.86070079355342 ] } },
{ "type": "Feature", "properties": { "id": 1950125, "Name": "Varenne", "Line": "14", "Info": null, "Start_map": 1950, "End_map": 1950, "Open_date": null, "Close_date": null }, "geometry": { "type": "Point", "coordinates": [ 2.315648881372787, 48.856009422646345 ] } },
{ "type": "Feature", "properties": { "id": 1950126, "Name": "Saint Francois-Xavier", "Line": "14", "Info": null, "Start_map": 1950, "End_map": 1950, "Open_date": null, "Close_date": null }, "geometry": { "type": "Point", "coordinates": [ 2.315095241327853, 48.851929969683674 ] } },
{ "type": "Feature", "properties": { "id": 1950127, "Name": "Duroc", "Line": "14", "Info": null, "Start_map": 1950, "End_map": 1950, "Open_date": null, "Close_date": null }, "geometry": { "type": "Point", "coordinates": [ 2.316785300412388, 48.847442571424736 ] } },
{ "type": "Feature", "properties": { "id": 1950128, "Name": "Montparnasse Bienvenüe", "Line": "14", "Info": null, "Start_map": 1950, "End_map": 1950, "Open_date": null, "Close_date": null }, "geometry": { "type": "Point", "coordinates": [ 2.321272698671327, 48.84307172896473 ] } },
{ "type": "Feature", "properties": { "id": 1950129, "Name": "Gaite", "Line": "14", "Info": null, "Start_map": 1950, "End_map": 1950, "Open_date": null, "Close_date": null }, "geometry": { "type": "Point", "coordinates": [ 2.322846201956929, 48.838584330705793 ] } },
{ "type": "Feature", "properties": { "id": 1950130, "Name": "Pernety", "Line": "14", "Info": null, "Start_map": 1950, "End_map": 1950, "Open_date": null, "Close_date": null }, "geometry": { "type": "Point", "coordinates": [ 2.318737610044524, 48.83400951559765 ] } },
{ "type": "Feature", "properties": { "id": 1950131, "Name": "Plaisance", "Line": "14", "Info": null, "Start_map": 1950, "End_map": 1950, "Open_date": null, "Close_date": null }, "geometry": { "type": "Point", "coordinates": [ 2.313230348544917, 48.831066481674583 ] } },
{ "type": "Feature", "properties": { "id": 1950132, "Name": "Porte de Vanves", "Line": "14", "Info": null, "Start_map": 1950, "End_map": 1950, "Open_date": null, "Close_date": null }, "geometry": { "type": "Point", "coordinates": [ 2.306237000608909, 48.827773780354711 ] } },
{ "type": "Feature", "properties": { "id": 1950133, "Name": "Chatelet", "Line": "11", "Info": null, "Start_map": 1950, "End_map": 1950, "Open_date": null, "Close_date": null }, "geometry": { "type": "Point", "coordinates": [ 2.345574582748961, 48.858223982826104 ] } },
{ "type": "Feature", "properties": { "id": 1950134, "Name": "Hotel-de-Ville", "Line": "11", "Info": null, "Start_map": 1950, "End_map": 1950, "Open_date": null, "Close_date": null }, "geometry": { "type": "Point", "coordinates": [ 2.352101707489235, 48.858020010177967 ] } },
{ "type": "Feature", "properties": { "id": 1950135, "Name": "Rambuteau", "Line": "11", "Info": null, "Start_map": 1950, "End_map": 1950, "Open_date": null, "Close_date": null }, "geometry": { "type": "Point", "coordinates": [ 2.353791766573771, 48.861574962045438 ] } },
{ "type": "Feature", "properties": { "id": 1950136, "Name": "Arts-et-Metiers", "Line": "11", "Info": null, "Start_map": 1950, "End_map": 1950, "Open_date": null, "Close_date": null }, "geometry": { "type": "Point", "coordinates": [ 2.356618244697908, 48.865013358113977 ] } },
{ "type": "Feature", "properties": { "id": 1950137, "Name": "Republique", "Line": "11", "Info": null, "Start_map": 1950, "End_map": 1950, "Open_date": null, "Close_date": null }, "geometry": { "type": "Point", "coordinates": [ 2.363873843181516, 48.867461029891587 ] } },
{ "type": "Feature", "properties": { "id": 1950138, "Name": "Goncourt", "Line": "11", "Info": null, "Start_map": 1950, "End_map": 1950, "Open_date": null, "Close_date": null }, "geometry": { "type": "Point", "coordinates": [ 2.370808913218058, 48.869675590071317 ] } },
{ "type": "Feature", "properties": { "id": 1950139, "Name": "Belleville", "Line": "11", "Info": null, "Start_map": 1950, "End_map": 1950, "Open_date": null, "Close_date": null }, "geometry": { "type": "Point", "coordinates": [ 2.376141341019265, 48.871627899703448 ] } },
{ "type": "Feature", "properties": { "id": 1950140, "Name": "Pyrenees", "Line": "11", "Info": null, "Start_map": 1950, "End_map": 1950, "Open_date": null, "Close_date": null }, "geometry": { "type": "Point", "coordinates": [ 2.385757194431278, 48.873638487235048 ] } },
{ "type": "Feature", "properties": { "id": 1950141, "Name": "Jourdain", "Line": "11", "Info": null, "Start_map": 1950, "End_map": 1950, "Open_date": null, "Close_date": null }, "geometry": { "type": "Point", "coordinates": [ 2.389865786343683, 48.874745767324917 ] } },
{ "type": "Feature", "properties": { "id": 1950142, "Name": "Place des Fetes", "Line": "11", "Info": null, "Start_map": 1950, "End_map": 1950, "Open_date": null, "Close_date": null }, "geometry": { "type": "Point", "coordinates": [ 2.393071070814353, 48.875882186364521 ] } },
{ "type": "Feature", "properties": { "id": 1950143, "Name": "Telegraphe", "Line": "11", "Info": null, "Start_map": 1950, "End_map": 1950, "Open_date": null, "Close_date": null }, "geometry": { "type": "Point", "coordinates": [ 2.398345220716093, 48.875474241068254 ] } },
{ "type": "Feature", "properties": { "id": 1950144, "Name": "Porte des Lilas", "Line": "11", "Info": null, "Start_map": 1950, "End_map": 1950, "Open_date": null, "Close_date": null }, "geometry": { "type": "Point", "coordinates": [ 2.407057766686371, 48.87713516120305 ] } },
{ "type": "Feature", "properties": { "id": 1950145, "Name": "Mairie des Lilas", "Line": "11", "Info": null, "Start_map": 1950, "End_map": 1950, "Open_date": null, "Close_date": null }, "geometry": { "type": "Point", "coordinates": [ 2.416498786399983, 48.879903361427722 ] } },
{ "type": "Feature", "properties": { "id": 1950146, "Name": "Pelleport", "Line": "3", "Info": null, "Start_map": 1950, "End_map": 1950, "Open_date": null, "Close_date": null }, "geometry": { "type": "Point", "coordinates": [ 2.40134653253863, 48.868830560529041 ] } },
{ "type": "Feature", "properties": { "id": 1950147, "Name": "Saint Fargeau", "Line": "3", "Info": null, "Start_map": 1950, "End_map": 1950, "Open_date": null, "Close_date": null }, "geometry": { "type": "Point", "coordinates": [ 2.404260427511967, 48.87194842815051 ] } },
{ "type": "Feature", "properties": { "id": 1950148, "Name": "Porte des Lilas", "Line": "3", "Info": null, "Start_map": 1950, "End_map": 1950, "Open_date": null, "Close_date": null }, "geometry": { "type": "Point", "coordinates": [ 2.40618359819437, 48.876464965359183 ] } },
{ "type": "Feature", "properties": { "id": 1950149, "Name": "Sablons", "Line": "1", "Info": null, "Start_map": 1950, "End_map": 1950, "Open_date": null, "Close_date": null }, "geometry": { "type": "Point", "coordinates": [ 2.27179924493941, 48.88052310332813 ] } },
{ "type": "Feature", "properties": { "id": 1950150, "Name": "Pont de Neuilly", "Line": "1", "Info": null, "Start_map": 1950, "End_map": 1950, "Open_date": null, "Close_date": null }, "geometry": { "type": "Point", "coordinates": [ 2.260010023418836, 48.884059869784302 ] } },
{ "type": "Feature", "properties": { "id": 1950151, "Name": "Jaures", "Line": "5", "Info": null, "Start_map": 1950, "End_map": 1950, "Open_date": null, "Close_date": null }, "geometry": { "type": "Point", "coordinates": [ 2.370540172696534, 48.882561449720093 ] } },
{ "type": "Feature", "properties": { "id": 1950152, "Name": "Laumiere", "Line": "5", "Info": null, "Start_map": 1950, "End_map": 1950, "Open_date": null, "Close_date": null }, "geometry": { "type": "Point", "coordinates": [ 2.379698208697564, 48.884694143035397 ] } },
{ "type": "Feature", "properties": { "id": 1950153, "Name": "Ourcq", "Line": "5", "Info": null, "Start_map": 1950, "End_map": 1950, "Open_date": null, "Close_date": null }, "geometry": { "type": "Point", "coordinates": [ 2.38584538354757, 48.886241391126894 ] } },
{ "type": "Feature", "properties": { "id": 1950154, "Name": "Porte de Pantin", "Line": "5", "Info": null, "Start_map": 1950, "End_map": 1950, "Open_date": null, "Close_date": null }, "geometry": { "type": "Point", "coordinates": [ 2.392996178781251, 48.888206814378258 ] } },
{ "type": "Feature", "properties": { "id": 1950155, "Name": "Hoche", "Line": "5", "Info": null, "Start_map": 1950, "End_map": 1950, "Open_date": null, "Close_date": null }, "geometry": { "type": "Point", "coordinates": [ 2.402237849814254, 48.890548595273501 ] } },
{ "type": "Feature", "properties": { "id": 1950156, "Name": "Eglise de Pantin", "Line": "5", "Info": null, "Start_map": 1950, "End_map": 1950, "Open_date": null, "Close_date": null }, "geometry": { "type": "Point", "coordinates": [ 2.411061345687393, 48.892639471072826 ] } },
{ "type": "Feature", "properties": { "id": 1950157, "Name": "Stalingrad", "Line": "5", "Info": null, "Start_map": 1950, "End_map": 1950, "Open_date": null, "Close_date": null }, "geometry": { "type": "Point", "coordinates": [ 2.367942979103002, 48.884937463049404 ] } },
{ "type": "Feature", "properties": { "id": 19085, "Name": "Argentine", "Line": "1", "Info": "Name changed from Obligado to Argentine", "Start_map": 1950, "End_map": 1950, "Open_date": null, "Close_date": null }, "geometry": { "type": "Point", "coordinates": [ 2.288288598504033, 48.875327065856411 ] } },
{ "type": "Feature", "properties": { "id": 190864, "Name": "Marcadet-Poissonniers", "Line": "4", "Info": "Name changed from Marcadet to Marcadet-Poissonniers", "Start_map": 1950, "End_map": 1950, "Open_date": null, "Close_date": null }, "geometry": { "type": "Point", "coordinates": [ 2.349083518815458, 48.891400247281638 ] } },
{ "type": "Feature", "properties": { "id": 190812, "Name": "George V", "Line": "1", "Info": "Name changed from Alma to George V in between 1915 and 1950", "Start_map": 1950, "End_map": 1950, "Open_date": null, "Close_date": null }, "geometry": { "type": "Point", "coordinates": [ 2.300072215353196, 48.87142054070533 ] } },
{ "type": "Feature", "properties": { "id": 190815, "Name": "Franklin D. Roosevelt", "Line": "1", "Info": "Station Marbeu was merged with station Franklin D. Roosevelt in-between 1915 and", "Start_map": 1950, "End_map": 1950, "Open_date": null, "Close_date": null }, "geometry": { "type": "Point", "coordinates": [ 2.307969191923143, 48.869077622102751 ] } },
{ "type": "Feature", "properties": { "id": 190818, "Name": "Champs-Elysees - Clemenceau", "Line": "1", "Info": "Clemenceau was added to Champs-Elysees in-between 1915 and 1950", "Start_map": 1950, "End_map": 1950, "Open_date": null, "Close_date": null }, "geometry": { "type": "Point", "coordinates": [ 2.313456867100343, 48.86738593276241 ] } },
{ "type": "Feature", "properties": { "id": 190827, "Name": "Havre-Caumartin", "Line": "3", "Info": "Name changed from Caumartin to Havre-Caumartin in-between 1915 and 1950", "Start_map": 1950, "End_map": 1950, "Open_date": null, "Close_date": null }, "geometry": { "type": "Point", "coordinates": [ 2.329082967704669, 48.873277741186996 ] } },
{ "type": "Feature", "properties": { "id": 1950158, "Name": "Montmartre", "Line": "8", "Info": null, "Start_map": 1950, "End_map": 1950, "Open_date": null, "Close_date": null }, "geometry": { "type": "Point", "coordinates": [ 2.343403730993823, 48.870972273334445 ] } },
{ "type": "Feature", "properties": { "id": 190839, "Name": "Strasbourg - Saint-Denis", "Line": "4", "Info": "Name changed from Saint-Denis to Strasbourg-Saint-Denis in-between 1915 and 1950", "Start_map": 1950, "End_map": 1950, "Open_date": null, "Close_date": null }, "geometry": { "type": "Point", "coordinates": [ 2.353995070717302, 48.869435257431832 ] } },
{ "type": "Feature", "properties": { "id": 190867, "Name": "Colonel Fabien", "Line": "2", "Info": "Line was renamed from Combat to Colonel Fabien after WWII in honor of Fabien", "Start_map": 1950, "End_map": 1950, "Open_date": null, "Close_date": null }, "geometry": { "type": "Point", "coordinates": [ 2.370697609604365, 48.877628850342703 ] } },
{ "type": "Feature", "properties": { "id": 190892, "Name": "Picpus", "Line": "6", "Info": "Saint-Mandé was changed to Picpus in-between 1915 to 1950", "Start_map": 1950, "End_map": 1950, "Open_date": null, "Close_date": null }, "geometry": { "type": "Point", "coordinates": [ 2.400341125049193, 48.845511151719009 ] } },
{ "type": "Feature", "properties": { "id": 190895, "Name": "Dugommier", "Line": "6", "Info": "Charenton was changed to Dugommier in-between 1915 and 1950", "Start_map": 1950, "End_map": 1950, "Open_date": null, "Close_date": null }, "geometry": { "type": "Point", "coordinates": [ 2.388437036169774, 48.83990922754046 ] } },
{ "type": "Feature", "properties": { "id": 190889, "Name": "Gare d'Orleans - Austerlitz", "Line": "5", "Info": "Austerlitz was added to Gare d'Orleans in-between 1915 and 1950 and only remains", "Start_map": 1950, "End_map": 1950, "Open_date": null, "Close_date": null }, "geometry": { "type": "Point", "coordinates": [ 2.364395444903496, 48.842756872331222 ] } },
{ "type": "Feature", "properties": { "id": 190888, "Name": "Quai de la Rapee", "Line": "5", "Info": "Austerlitz changed to Quai de la Rapée in 1916", "Start_map": 1950, "End_map": 1950, "Open_date": null, "Close_date": null }, "geometry": { "type": "Point", "coordinates": [ 2.366636214574916, 48.846304757644305 ] } },
{ "type": "Feature", "properties": { "id": 190858, "Name": "Montparnasse - Bienvenue", "Line": "6", "Info": "Maine station was merged with Montpanasse - Bienvenue in-between 1915 and 1950", "Start_map": 1950, "End_map": 1950, "Open_date": null, "Close_date": null }, "geometry": { "type": "Point", "coordinates": [ 2.32088566902699, 48.841641291602826 ] } },
{ "type": "Feature", "properties": { "id": 190857, "Name": "Montparnasse - Bienvenue", "Line": "4", "Info": "Gare Montparnasse was changed to Montparnasse-Bienvenue in-between 1915 and 1950", "Start_map": 1950, "End_map": 1950, "Open_date": null, "Close_date": null }, "geometry": { "type": "Point", "coordinates": [ 2.325624732325024, 48.843242326500814 ] } },
{ "type": "Feature", "properties": { "id": 190832, "Name": "La Motte-Picquet - Grenelle", "Line": "6", "Info": "Motte-Picquet was modified with Grenelle in-between 1915 and 1950", "Start_map": 1950, "End_map": 1950, "Open_date": null, "Close_date": null }, "geometry": { "type": "Point", "coordinates": [ 2.297062269744986, 48.848685845153959 ] } },
{ "type": "Feature", "properties": { "id": 190823, "Name": "Bir-Hakeim", "Line": "6", "Info": "Grenelle was changed to Bir-Hakeim after WWII in honor of the soldier", "Start_map": 1950, "End_map": 1950, "Open_date": null, "Close_date": null }, "geometry": { "type": "Point", "coordinates": [ 2.288993053859147, 48.854001281015265 ] } },
{ "type": "Feature", "properties": { "id": 19159, "Name": "Eglise d'Auteuil", "Line": "10", "Info": "Wilhem changed to Eglise d'Auteuil in-between 1915 and 1950", "Start_map": 1950, "End_map": 1950, "Open_date": null, "Close_date": null }, "geometry": { "type": "Point", "coordinates": [ 2.26938523855572, 48.848313133041799 ] } },
{ "type": "Feature", "properties": { "id": 191512, "Name": "Charles Michels", "Line": "10", "Info": "Beaugrenelle was changed to Charles Michels after WWII in honor of Michels", "Start_map": 1950, "End_map": 1950, "Open_date": null, "Close_date": null }, "geometry": { "type": "Point", "coordinates": [ 2.286276393154558, 48.847302932063165 ] } },
{ "type": "Feature", "properties": { "id": 191513, "Name": "Emile Zola", "Line": "10", "Info": "Commerce was changed to Emile Zola in-between 1915 and 1950", "Start_map": 1950, "End_map": 1950, "Open_date": null, "Close_date": null }, "geometry": { "type": "Point", "coordinates": [ 2.294090594842323, 48.847377211546892 ] } }
]
}
